<?xml version="1.0" encoding="UTF-8"?>
<kml xmlns="http://www.opengis.net/kml/2.2">
  <Document>
    <name><![CDATA[Toronto Restaurants, Bakeries, Cheese Shops + Farmer's Markets]]></name>
    <description>Yes, they start in my neighbourhood and fan out. But I chose to live here because of the concentration of gems. They also generally bias towards authenticity, provenance, and craft.  </description>
    <Style id="icon">
      <IconStyle>
        <scale>1</scale>
        <Icon>
            <href>http://www.incola.com.pl/wp-content/uploads/2018/04/marker.png</href>
        </Icon>
      </IconStyle>
      <LabelStyle>
        <scale>0</scale>
      </LabelStyle>
      <BalloonStyle>
          <text><![CDATA[<h3>$[name]</h3><p>$[description]</p>]]></text>
      </BalloonStyle>
    </Style>
    <Folder>
      <name>Restaurants, Bars, Markets, Cheese Shops</name>
      <Placemark>
        <name>Enoteca Sociale</name>
        <styleUrl>#icon</styleUrl>
        <Point>
          <coordinates>
            -79.425717,43.649561,0
          </coordinates>
        </Point>
      </Placemark>
      <Placemark>
        <name>Campagnolo Inc</name>
        <styleUrl>#icon</styleUrl>
        <Point>
          <coordinates>
            -79.409498,43.651692,0
          </coordinates>
        </Point>
      </Placemark>
      <Placemark>
        <name>Cubano</name>
        <styleUrl>#icon</styleUrl>
        <Point>
          <coordinates>
            -79.41965,43.646336,0
          </coordinates>
        </Point>
      </Placemark>
      <Placemark>
        <name>Foxley Bistro And Bar</name>
        <description>Tom Thai has been making delectable small plates for years and Foxley is every bit the gem Tempo (on College st.) was. From rich ribs to tangy ceviches, you'd be hard pressed to not find something that suits any palate or mood. Foxley has been a neighbourhood favourite since it first kicked the Ossington strip into gear.</description>
        <styleUrl>#icon</styleUrl>
        <Point>
          <coordinates>
            -79.420541,43.648762,0
          </coordinates>
        </Point>
      </Placemark>
      <Placemark>
        <name>Beast Restaurant</name>
        <description><![CDATA[Scott has been an amazing ambassador for Toronto&#39;s food soul since he took over this amazing neighbourhood location from Bertrand  Alépée + Jason Innis (Amuse Bouche).<br><br>Despite the name, pescaterians and vegetarians can also enjoy Scott&#39;s delectable inventions. Beyond neat cuts, you&#39;ll find canadiana mixed with souther sensibilities. <br><br>Have fun.]]></description>
        <styleUrl>#icon</styleUrl>
        <Point>
          <coordinates>
            -79.405684,43.644083,0
          </coordinates>
        </Point>
      </Placemark>
      <Placemark>
        <name>Oyster Boy</name>
        <styleUrl>#icon</styleUrl>
        <Point>
          <coordinates>
            -79.414319,43.645173,0
          </coordinates>
        </Point>
      </Placemark>
      <Placemark>
        <name><![CDATA[Parts & Labour]]></name>
        <styleUrl>#icon</styleUrl>
        <Point>
          <coordinates>
            -79.440356,43.639875,0
          </coordinates>
        </Point>
      </Placemark>
      <Placemark>
        <name>The Drake Hotel</name>
        <styleUrl>#icon</styleUrl>
        <Point>
          <coordinates>
            -79.424615,43.643254,0
          </coordinates>
        </Point>
      </Placemark>
      <Placemark>
        <name>Gladstone Hotel</name>
        <styleUrl>#icon</styleUrl>
        <Point>
          <coordinates>
            -79.42689,43.642646,0
          </coordinates>
        </Point>
      </Placemark>
      <Placemark>
        <name>Cava</name>
        <styleUrl>#icon</styleUrl>
        <Point>
          <coordinates>
            -79.394841,43.689878,0
          </coordinates>
        </Point>
      </Placemark>
      <Placemark>
        <name>Pizzeria Libretto</name>
        <styleUrl>#icon</styleUrl>
        <Point>
          <coordinates>
            -79.420596,43.648946,0
          </coordinates>
        </Point>
      </Placemark>
      <Placemark>
        <name>Tibetkitchen</name>
        <styleUrl>#icon</styleUrl>
        <Point>
          <coordinates>
            -79.43967,43.64011,0
          </coordinates>
        </Point>
      </Placemark>
      <Placemark>
        <name>Chinese Traditional Food Company</name>
        <styleUrl>#icon</styleUrl>
        <Point>
          <coordinates>
            -79.399068,43.65279,0
          </coordinates>
        </Point>
      </Placemark>
      <Placemark>
        <name><![CDATA[Mother's Dumplings]]></name>
        <styleUrl>#icon</styleUrl>
        <Point>
          <coordinates>
            -79.399425,43.657094,0
          </coordinates>
        </Point>
      </Placemark>
      <Placemark>
        <name>Luma</name>
        <styleUrl>#icon</styleUrl>
        <Point>
          <coordinates>
            -79.389925,43.646671,0
          </coordinates>
        </Point>
      </Placemark>
      <Placemark>
        <name>Torito Tapas Bar</name>
        <styleUrl>#icon</styleUrl>
        <Point>
          <coordinates>
            -79.403092,43.656785,0
          </coordinates>
        </Point>
      </Placemark>
      <Placemark>
        <name><![CDATA[Porchetta & Co]]></name>
        <styleUrl>#icon</styleUrl>
        <Point>
          <coordinates>
            -79.409002,43.651587,0
          </coordinates>
        </Point>
      </Placemark>
      <Placemark>
        <name>Terroni</name>
        <styleUrl>#icon</styleUrl>
        <Point>
          <coordinates>
            -79.409174,43.646223,0
          </coordinates>
        </Point>
      </Placemark>
      <Placemark>
        <name><![CDATA[Mildred's Temple Kitchen]]></name>
        <styleUrl>#icon</styleUrl>
        <Point>
          <coordinates>
            -79.420079,43.639753,0
          </coordinates>
        </Point>
      </Placemark>
      <Placemark>
        <name>Grand Electric</name>
        <styleUrl>#icon</styleUrl>
        <Point>
          <coordinates>
            -79.431973,43.641594,0
          </coordinates>
        </Point>
      </Placemark>
      <Placemark>
        <name>Le Sélect Bistro</name>
        <styleUrl>#icon</styleUrl>
        <Point>
          <coordinates>
            -79.396731,43.643579,0
          </coordinates>
        </Point>
      </Placemark>
      <Placemark>
        <name><![CDATA[Rose & Sons Swan]]></name>
        <styleUrl>#icon</styleUrl>
        <Point>
          <coordinates>
            -79.414858,43.645073,0
          </coordinates>
        </Point>
      </Placemark>
      <Placemark>
        <name>Oyster Boy</name>
        <styleUrl>#icon</styleUrl>
        <Point>
          <coordinates>
            -79.414377,43.645351,0
          </coordinates>
        </Point>
      </Placemark>
      <Placemark>
        <name>Marben</name>
        <styleUrl>#icon</styleUrl>
        <Point>
          <coordinates>
            -79.398513,43.64322,0
          </coordinates>
        </Point>
      </Placemark>
      <Placemark>
        <name>Milagro</name>
        <styleUrl>#icon</styleUrl>
        <Point>
          <coordinates>
            -79.388666,43.644455,0
          </coordinates>
        </Point>
      </Placemark>
      <Placemark>
        <name>Milagro On Queen</name>
        <styleUrl>#icon</styleUrl>
        <Point>
          <coordinates>
            -79.408259,43.646247,0
          </coordinates>
        </Point>
      </Placemark>
      <Placemark>
        <name>Auberge du Pommier</name>
        <styleUrl>#icon</styleUrl>
        <Point>
          <coordinates>
            -79.407897,43.74687,0
          </coordinates>
        </Point>
      </Placemark>
      <Placemark>
        <name>Cafe Belong</name>
        <styleUrl>#icon</styleUrl>
        <Point>
          <coordinates>
            -79.366097,43.683103,0
          </coordinates>
        </Point>
      </Placemark>
      <Placemark>
        <name><![CDATA[Hopgood's Foodliner]]></name>
        <description>Eclectic, fun eastern Canadian bent. Delectable.</description>
        <styleUrl>#icon</styleUrl>
        <Point>
          <coordinates>
            -79.449883,43.648826,0
          </coordinates>
        </Point>
      </Placemark>
      <Placemark>
        <name>Queen Margherita Pizza</name>
        <styleUrl>#icon</styleUrl>
        <Point>
          <coordinates>
            -79.324178,43.664718,0
          </coordinates>
        </Point>
      </Placemark>
      <Placemark>
        <name>BarVolo</name>
        <styleUrl>#icon</styleUrl>
        <Point>
          <coordinates>
            -79.384878,43.666017,0
          </coordinates>
        </Point>
      </Placemark>
      <Placemark>
        <name>Buca</name>
        <styleUrl>#icon</styleUrl>
        <Point>
          <coordinates>
            -79.400375,43.644447,0
          </coordinates>
        </Point>
      </Placemark>
      <Placemark>
        <name>Osteria</name>
        <styleUrl>#icon</styleUrl>
        <Point>
          <coordinates>
            -79.377958,43.652168,0
          </coordinates>
        </Point>
      </Placemark>
      <Placemark>
        <name>Restaurant Chantecler</name>
        <styleUrl>#icon</styleUrl>
        <Point>
          <coordinates>
            -79.431264,43.641795,0
          </coordinates>
        </Point>
      </Placemark>
      <Placemark>
        <name>The Stockyards</name>
        <styleUrl>#icon</styleUrl>
        <Point>
          <coordinates>
            -79.426268,43.681431,0
          </coordinates>
        </Point>
      </Placemark>
      <Placemark>
        <name><![CDATA[Shangrila Tibetan & Asian Cuisine]]></name>
        <styleUrl>#icon</styleUrl>
        <Point>
          <coordinates>
            -79.441501,43.639649,0
          </coordinates>
        </Point>
      </Placemark>
      <Placemark>
        <name>Bonjour Brioche Limited</name>
        <styleUrl>#icon</styleUrl>
        <Point>
          <coordinates>
            -79.346252,43.659779,0
          </coordinates>
        </Point>
      </Placemark>
      <Placemark>
        <name>Thin Blue Line Cheese</name>
        <styleUrl>#icon</styleUrl>
        <Point>
          <coordinates>
            -79.447128,43.641716,0
          </coordinates>
        </Point>
      </Placemark>
      <Placemark>
        <name><![CDATA[Cheese Boutique & Delicatessen]]></name>
        <styleUrl>#icon</styleUrl>
        <Point>
          <coordinates>
            -79.475227,43.638348,0
          </coordinates>
        </Point>
      </Placemark>
      <Placemark>
        <name>Leslieville Cheese Market East</name>
        <styleUrl>#icon</styleUrl>
        <Point>
          <coordinates>
            -79.342224,43.66037,0
          </coordinates>
        </Point>
      </Placemark>
      <Placemark>
        <name>Art of Cheese</name>
        <styleUrl>#icon</styleUrl>
        <Point>
          <coordinates>
            -79.288712,43.680256,0
          </coordinates>
        </Point>
      </Placemark>
      <Placemark>
        <name>Alex Farm Cheese</name>
        <styleUrl>#icon</styleUrl>
        <Point>
          <coordinates>
            -79.351021,43.677483,0
          </coordinates>
        </Point>
      </Placemark>
      <Placemark>
        <name>Cheese Magic</name>
        <styleUrl>#icon</styleUrl>
        <Point>
          <coordinates>
            -79.40126,43.654831,0
          </coordinates>
        </Point>
      </Placemark>
      <Placemark>
        <name>Trinity Bellwoods Farmers Market</name>
        <styleUrl>#icon</styleUrl>
        <Point>
          <coordinates>
            -79.41761,43.649235,0
          </coordinates>
        </Point>
      </Placemark>
      <Placemark>
        <name>Nancy`s Cheese</name>
        <styleUrl>#icon</styleUrl>
        <Point>
          <coordinates>
            -79.406631,43.675133,0
          </coordinates>
        </Point>
      </Placemark>
      <Placemark>
        <name>Alex Farm Cheese</name>
        <styleUrl>#icon</styleUrl>
        <Point>
          <coordinates>
            -79.351021,43.677483,0
          </coordinates>
        </Point>
      </Placemark>
      <Placemark>
        <name>Dufflet Pastries Inc.</name>
        <styleUrl>#icon</styleUrl>
        <Point>
          <coordinates>
            -79.408409,43.646187,0
          </coordinates>
        </Point>
      </Placemark>
      <Placemark>
        <name>Harbord Bakery</name>
        <styleUrl>#icon</styleUrl>
        <Point>
          <coordinates>
            -79.404495,43.662483,0
          </coordinates>
        </Point>
      </Placemark>
      <Placemark>
        <name>Patachou Patisserie</name>
        <styleUrl>#icon</styleUrl>
        <Point>
          <coordinates>
            -79.390503,43.678967,0
          </coordinates>
        </Point>
      </Placemark>
      <Placemark>
        <name>Fresh From The Farm</name>
        <styleUrl>#icon</styleUrl>
        <Point>
          <coordinates>
            -79.342567,43.693211,0
          </coordinates>
        </Point>
      </Placemark>
      <Placemark>
        <name>Trinity Bellwoods Farmers Market</name>
        <styleUrl>#icon</styleUrl>
        <Point>
          <coordinates>
            -79.41761,43.649235,0
          </coordinates>
        </Point>
      </Placemark>
      <Placemark>
        <name>Friends Of Riverdale Farm</name>
        <styleUrl>#icon</styleUrl>
        <Point>
          <coordinates>
            -79.361465,43.667397,0
          </coordinates>
        </Point>
      </Placemark>
      <Placemark>
        <name>La Fromagerie</name>
        <styleUrl>#icon</styleUrl>
        <Point>
          <coordinates>
            -79.424377,43.654118,0
          </coordinates>
        </Point>
      </Placemark>
      <Placemark>
        <name><![CDATA[grain, curd & bean]]></name>
        <styleUrl>#icon</styleUrl>
        <Point>
          <coordinates>
            -79.429192,43.649708,0
          </coordinates>
        </Point>
      </Placemark>
      <Placemark>
        <name>Cheese Magic</name>
        <styleUrl>#icon</styleUrl>
        <Point>
          <coordinates>
            -79.40126,43.654831,0
          </coordinates>
        </Point>
      </Placemark>
      <Placemark>
        <name>Fiesta Farms Inc</name>
        <styleUrl>#icon</styleUrl>
        <Point>
          <coordinates>
            -79.42057,43.668354,0
          </coordinates>
        </Point>
      </Placemark>
      <Placemark>
        <name>Whole Foods Market</name>
        <styleUrl>#icon</styleUrl>
        <Point>
          <coordinates>
            -79.395538,43.671955,0
          </coordinates>
        </Point>
      </Placemark>
      <Placemark>
        <name><![CDATA[St John's Bakery]]></name>
        <styleUrl>#icon</styleUrl>
        <Point>
          <coordinates>
            -79.350403,43.66032,0
          </coordinates>
        </Point>
      </Placemark>
      <Placemark>
        <name>Woodlot Restaurant</name>
        <styleUrl>#icon</styleUrl>
        <Point>
          <coordinates>
            -79.409981,43.655579,0
          </coordinates>
        </Point>
      </Placemark>
      <Placemark>
        <name>Ravisoups</name>
        <styleUrl>#icon</styleUrl>
        <Point>
          <coordinates>
            -79.423853,43.64328,0
          </coordinates>
        </Point>
      </Placemark>
      <Placemark>
        <name>Island Foods</name>
        <styleUrl>#icon</styleUrl>
        <Point>
          <coordinates>
            -79.426794,43.639181,0
          </coordinates>
        </Point>
      </Placemark>
      <Placemark>
        <name>Mother India</name>
        <styleUrl>#icon</styleUrl>
        <Point>
          <coordinates>
            -79.436283,43.640735,0
          </coordinates>
        </Point>
      </Placemark>
      <Placemark>
        <name>Bellwoods Brewery</name>
        <styleUrl>#icon</styleUrl>
        <Point>
          <coordinates>
            -79.420019,43.647081,0
          </coordinates>
        </Point>
      </Placemark>
      <Placemark>
        <name>West End Food Co-op</name>
        <styleUrl>#icon</styleUrl>
        <Point>
          <coordinates>
            -79.429588,43.641832,0
          </coordinates>
        </Point>
      </Placemark>
      <Placemark>
        <name>Guu</name>
        <styleUrl>#icon</styleUrl>
        <Point>
          <coordinates>
            -79.379204,43.66044,0
          </coordinates>
        </Point>
      </Placemark>
      <Placemark>
        <name>Hawker Bar</name>
        <styleUrl>#icon</styleUrl>
        <Point>
          <coordinates>
            -79.420382,43.647913,0
          </coordinates>
        </Point>
      </Placemark>
      <Placemark>
        <name>Electric Mud BBQ</name>
        <styleUrl>#icon</styleUrl>
        <Point>
          <coordinates>
            -79.432385,43.642019,0
          </coordinates>
        </Point>
      </Placemark>
      <Placemark>
        <name>The Federal Reserve Restaurant</name>
        <styleUrl>#icon</styleUrl>
        <Point>
          <coordinates>
            -79.43007,43.649659,0
          </coordinates>
        </Point>
      </Placemark>
      <Placemark>
        <name>Nadege</name>
        <styleUrl>#icon</styleUrl>
        <Point>
          <coordinates>
            -79.411376,43.645788,0
          </coordinates>
        </Point>
      </Placemark>
      <Placemark>
        <name>Bellwoods Brewery</name>
        <styleUrl>#icon</styleUrl>
        <Point>
          <coordinates>
            -79.420019,43.647081,0
          </coordinates>
        </Point>
      </Placemark>
      <Placemark>
        <name>Bestellen</name>
        <styleUrl>#icon</styleUrl>
        <Point>
          <coordinates>
            -79.427553,43.653446,0
          </coordinates>
        </Point>
      </Placemark>
      <Placemark>
        <name>Union</name>
        <styleUrl>#icon</styleUrl>
        <Point>
          <coordinates>
            -79.419572,43.645814,0
          </coordinates>
        </Point>
      </Placemark>
      <Placemark>
        <name>Table 17</name>
        <styleUrl>#icon</styleUrl>
        <Point>
          <coordinates>
            -79.347285,43.659552,0
          </coordinates>
        </Point>
      </Placemark>
      <Placemark>
        <name>Rose and Sons</name>
        <styleUrl>#icon</styleUrl>
        <Point>
          <coordinates>
            -79.403553,43.675704,0
          </coordinates>
        </Point>
      </Placemark>
      <Placemark>
        <name>Edulis Restaurant</name>
        <styleUrl>#icon</styleUrl>
        <Point>
          <coordinates>
            -79.40654,43.64197,0
          </coordinates>
        </Point>
      </Placemark>
      <Placemark>
        <name>Midfield Wine Bar</name>
        <styleUrl>#icon</styleUrl>
        <Point>
          <coordinates>
            -79.430044,43.649658,0
          </coordinates>
        </Point>
      </Placemark>
      <Placemark>
        <name>Jumbo Empanadas Ltd</name>
        <styleUrl>#icon</styleUrl>
        <Point>
          <coordinates>
            -79.402075,43.655007,0
          </coordinates>
        </Point>
      </Placemark>
      <Placemark>
        <name>Bar Isabel</name>
        <styleUrl>#icon</styleUrl>
        <Point>
          <coordinates>
            -79.420769,43.654606,0
          </coordinates>
        </Point>
      </Placemark>
      <Placemark>
        <name>The Dock Ellis</name>
        <styleUrl>#icon</styleUrl>
        <Point>
          <coordinates>
            -79.425284,43.649531,0
          </coordinates>
        </Point>
      </Placemark>
      <Placemark>
        <name>Bazara</name>
        <styleUrl>#icon</styleUrl>
        <Point>
          <coordinates>
            -79.420684,43.648455,0
          </coordinates>
        </Point>
      </Placemark>
      <Placemark>
        <name>Bar Raval</name>
        <styleUrl>#icon</styleUrl>
        <Point>
          <coordinates>
            -79.410097,43.655991,0
          </coordinates>
        </Point>
      </Placemark>
      <Placemark>
        <name>The Tempered Room</name>
        <styleUrl>#icon</styleUrl>
        <Point>
          <coordinates>
            -79.433156,43.641457,0
          </coordinates>
        </Point>
      </Placemark>
      <Placemark>
        <name><![CDATA[Duggan's Brewery Parkdale]]></name>
        <styleUrl>#icon</styleUrl>
        <Point>
          <coordinates>
            -79.432141,43.641536,0
          </coordinates>
        </Point>
      </Placemark>
      <Placemark>
        <name><![CDATA[Raca Café & Bar]]></name>
        <styleUrl>#icon</styleUrl>
        <Point>
          <coordinates>
            -79.445019,43.639069,0
          </coordinates>
        </Point>
      </Placemark>
      <Placemark>
        <name><![CDATA[The Walton - cafe & cocktail bar]]></name>
        <styleUrl>#icon</styleUrl>
        <Point>
          <coordinates>
            -79.414331,43.654994,0
          </coordinates>
        </Point>
      </Placemark>
      <Placemark>
        <name>Blackbird Baking Co.</name>
        <styleUrl>#icon</styleUrl>
        <Point>
          <coordinates>
            -79.40061,43.654905,0
          </coordinates>
        </Point>
      </Placemark>
      <Placemark>
        <name>Le Gourmand Cafe</name>
        <description>Best Chocolate Chip cookie in the city.</description>
        <styleUrl>#icon</styleUrl>
        <Point>
          <coordinates>
            -79.396394,43.648194,0
          </coordinates>
        </Point>
      </Placemark>
      <Placemark>
        <name>Tucana Coffee</name>
        <styleUrl>#icon</styleUrl>
        <Point>
          <coordinates>
            -79.429095,43.649354,0
          </coordinates>
        </Point>
      </Placemark>
      <Placemark>
        <name>Sukhothai</name>
        <styleUrl>#icon</styleUrl>
        <Point>
          <coordinates>
            -79.430281,43.649745,0
          </coordinates>
        </Point>
      </Placemark>
      <Placemark>
        <name>Dundas Park Kitchen</name>
        <styleUrl>#icon</styleUrl>
        <Point>
          <coordinates>
            -79.44781,43.652182,0
          </coordinates>
        </Point>
      </Placemark>
      <Placemark>
        <name>Belljar Cafe</name>
        <styleUrl>#icon</styleUrl>
        <Point>
          <coordinates>
            -79.448001,43.652276,0
          </coordinates>
        </Point>
      </Placemark>
      <Placemark>
        <name>Hula Girl Espresso Boutique</name>
        <styleUrl>#icon</styleUrl>
        <Point>
          <coordinates>
            -79.453849,43.659703,0
          </coordinates>
        </Point>
      </Placemark>
      <Placemark>
        <name>RaviSoups</name>
        <styleUrl>#icon</styleUrl>
        <Point>
          <coordinates>
            -79.455211,43.6616,0
          </coordinates>
        </Point>
      </Placemark>
      <Placemark>
        <name>Cool Hand Of A Girl</name>
        <styleUrl>#icon</styleUrl>
        <Point>
          <coordinates>
            -79.462926,43.665565,0
          </coordinates>
        </Point>
      </Placemark>
      <Placemark>
        <name>South Indian Dosa Mahal Restaurant</name>
        <styleUrl>#icon</styleUrl>
        <Point>
          <coordinates>
            -79.440631,43.658966,0
          </coordinates>
        </Point>
      </Placemark>
      <Placemark>
        <name>The Emerson Restaurant</name>
        <styleUrl>#icon</styleUrl>
        <Point>
          <coordinates>
            -79.442157,43.658262,0
          </coordinates>
        </Point>
      </Placemark>
      <Placemark>
        <name>Holy Oak</name>
        <styleUrl>#icon</styleUrl>
        <Point>
          <coordinates>
            -79.441137,43.65861,0
          </coordinates>
        </Point>
      </Placemark>
      <Placemark>
        <name>The Gabardine</name>
        <styleUrl>#icon</styleUrl>
        <Point>
          <coordinates>
            -79.3816385,43.6509465,0
          </coordinates>
        </Point>
      </Placemark>
      <Placemark>
        <name>Honest Weight</name>
        <styleUrl>#icon</styleUrl>
        <Point>
          <coordinates>
            -79.461306,43.6654204,0
          </coordinates>
        </Point>
      </Placemark>
      <Placemark>
        <name>Antler</name>
        <styleUrl>#icon</styleUrl>
        <Point>
          <coordinates>
            -79.4306904,43.6498117,0
          </coordinates>
        </Point>
      </Placemark>
      <Placemark>
        <name>The Commodore</name>
        <styleUrl>#icon</styleUrl>
        <Point>
          <coordinates>
            -79.4312558,43.6417037,0
          </coordinates>
        </Point>
      </Placemark>
      <Placemark>
        <name>Ufficio</name>
        <styleUrl>#icon</styleUrl>
        <Point>
          <coordinates>
            -79.4230537,43.6494871,0
          </coordinates>
        </Point>
      </Placemark>
      <Placemark>
        <name>Chabrol</name>
        <styleUrl>#icon</styleUrl>
        <Point>
          <coordinates>
            -79.391714,43.6710492,0
          </coordinates>
        </Point>
      </Placemark>
      <Placemark>
        <name><![CDATA[Royale's Luncheonette]]></name>
        <styleUrl>#icon</styleUrl>
        <Point>
          <coordinates>
            -79.429303,43.6496985,0
          </coordinates>
        </Point>
      </Placemark>
      <Placemark>
        <name>Bar Begonia</name>
        <styleUrl>#icon</styleUrl>
        <Point>
          <coordinates>
            -79.4063661,43.6751582,0
          </coordinates>
        </Point>
      </Placemark>
      <Placemark>
        <name>Big Crow</name>
        <styleUrl>#icon</styleUrl>
        <Point>
          <coordinates>
            -79.4036527,43.6757612,0
          </coordinates>
        </Point>
      </Placemark>
      <Placemark>
        <name>Solita: Italian Gourmet Market</name>
        <styleUrl>#icon</styleUrl>
        <Point>
          <coordinates>
            -79.4280368,43.6494932,0
          </coordinates>
        </Point>
      </Placemark>
      <Placemark>
        <name>Prairie Boy Bread</name>
        <styleUrl>#icon</styleUrl>
        <Point>
          <coordinates>
            -79.4275635,43.6535242,0
          </coordinates>
        </Point>
      </Placemark>
      <Placemark>
        <name>Bent</name>
        <styleUrl>#icon</styleUrl>
        <Point>
          <coordinates>
            -79.407344,43.651949,0
          </coordinates>
        </Point>
      </Placemark>
      <Placemark>
        <name>Auberge du Pommier</name>
        <styleUrl>#icon</styleUrl>
        <Point>
          <coordinates>
            -79.407897,43.74687,0
          </coordinates>
        </Point>
      </Placemark>
      <Placemark>
        <name>Fonda Lola</name>
        <styleUrl>#icon</styleUrl>
        <Point>
          <coordinates>
            -79.416532,43.644674,0
          </coordinates>
        </Point>
      </Placemark>
      <Placemark>
        <name>Takht-e Tavoos</name>
        <styleUrl>#icon</styleUrl>
        <Point>
          <coordinates>
            -79.433144,43.65251,0
          </coordinates>
        </Point>
      </Placemark>
      <Placemark>
        <name>TALLBOYS - Craft Beer House</name>
        <styleUrl>#icon</styleUrl>
        <Point>
          <coordinates>
            -79.423796,43.662478,0
          </coordinates>
        </Point>
      </Placemark>
      <Placemark>
        <name>Dayali</name>
        <styleUrl>#icon</styleUrl>
        <Point>
          <coordinates>
            -79.327487,43.823575,0
          </coordinates>
        </Point>
      </Placemark>
      <Placemark>
        <name>Bar Neon</name>
        <styleUrl>#icon</styleUrl>
        <Point>
          <coordinates>
            -79.439278,43.659197,0
          </coordinates>
        </Point>
      </Placemark>
      <Placemark>
        <name>Fat Pasha</name>
        <styleUrl>#icon</styleUrl>
        <Point>
          <coordinates>
            -79.411818,43.673697,0
          </coordinates>
        </Point>
      </Placemark>
      <Placemark>
        <name>Le Baratin</name>
        <styleUrl>#icon</styleUrl>
        <Point>
          <coordinates>
            -79.4350699,43.6499558,0
          </coordinates>
        </Point>
      </Placemark>
      <Placemark>
        <name>branca restaurant</name>
        <styleUrl>#icon</styleUrl>
        <Point>
          <coordinates>
            -79.4390251,43.6499332,0
          </coordinates>
        </Point>
      </Placemark>
      <Placemark>
        <name>Imanishi Japanese Kitchen</name>
        <styleUrl>#icon</styleUrl>
        <Point>
          <coordinates>
            -79.4265348,43.6496675,0
          </coordinates>
        </Point>
      </Placemark>
      <Placemark>
        <name>Japango</name>
        <styleUrl>#icon</styleUrl>
        <Point>
          <coordinates>
            -79.385297,43.655066,0
          </coordinates>
        </Point>
      </Placemark>
      <Placemark>
        <name>Fisherfolk</name>
        <styleUrl>#icon</styleUrl>
        <Point>
          <coordinates>
            -79.3065851,43.7168512,0
          </coordinates>
        </Point>
      </Placemark>
      <Placemark>
        <name>Guu Izakaya</name>
        <styleUrl>#icon</styleUrl>
        <Point>
          <coordinates>
            -79.4311034,43.6418337,0
          </coordinates>
        </Point>
      </Placemark>
      <Placemark>
        <name>El Rey Mezcal Bar</name>
        <styleUrl>#icon</styleUrl>
        <Point>
          <coordinates>
            -79.4001367,43.6527999,0
          </coordinates>
        </Point>
      </Placemark>
      <Placemark>
        <name><![CDATA[Harry's Charcoal Broil]]></name>
        <styleUrl>#icon</styleUrl>
        <Point>
          <coordinates>
            -79.4370229,43.6366075,0
          </coordinates>
        </Point>
      </Placemark>
      <Placemark>
        <name>La Palma</name>
        <styleUrl>#icon</styleUrl>
        <Point>
          <coordinates>
            -79.4103509,43.6514245,0
          </coordinates>
        </Point>
      </Placemark>
      <Placemark>
        <name>Pinkerton Snack Bar</name>
        <styleUrl>#icon</styleUrl>
        <Point>
          <coordinates>
            -79.337279,43.6689715,0
          </coordinates>
        </Point>
      </Placemark>
      <Placemark>
        <name>Maple Leaf Tavern</name>
        <styleUrl>#icon</styleUrl>
        <Point>
          <coordinates>
            -79.3397865,43.6681721,0
          </coordinates>
        </Point>
      </Placemark>
      <Placemark>
        <name>Nuit Social</name>
        <styleUrl>#icon</styleUrl>
        <Point>
          <coordinates>
            -79.4254188,43.6429593,0
          </coordinates>
        </Point>
      </Placemark>
      <Placemark>
        <name>Pho Tien Thanh</name>
        <styleUrl>#icon</styleUrl>
        <Point>
          <coordinates>
            -79.4191633,43.6455053,0
          </coordinates>
        </Point>
      </Placemark>
      <Placemark>
        <name>Mamakas Taverna</name>
        <styleUrl>#icon</styleUrl>
        <Point>
          <coordinates>
            -79.4198642,43.6458917,0
          </coordinates>
        </Point>
      </Placemark>
      <Placemark>
        <name>ODDSEOUL</name>
        <styleUrl>#icon</styleUrl>
        <Point>
          <coordinates>
            -79.4196843,43.6461867,0
          </coordinates>
        </Point>
      </Placemark>
      <Placemark>
        <name>Pho Rùa Vàng Golden Turtle Restaurant</name>
        <styleUrl>#icon</styleUrl>
        <Point>
          <coordinates>
            -79.419667,43.646851,0
          </coordinates>
        </Point>
      </Placemark>
      <Placemark>
        <name>Cote De Boeuf</name>
        <styleUrl>#icon</styleUrl>
        <Point>
          <coordinates>
            -79.4201297,43.6472012,0
          </coordinates>
        </Point>
      </Placemark>
      <Placemark>
        <name><![CDATA[Reposado Bar & Lounge]]></name>
        <styleUrl>#icon</styleUrl>
        <Point>
          <coordinates>
            -79.42022,43.647279,0
          </coordinates>
        </Point>
      </Placemark>
      <Placemark>
        <name>Superpoint</name>
        <styleUrl>#icon</styleUrl>
        <Point>
          <coordinates>
            -79.4206005,43.64842,0
          </coordinates>
        </Point>
      </Placemark>
      <Placemark>
        <name>Get Well</name>
        <styleUrl>#icon</styleUrl>
        <Point>
          <coordinates>
            -79.4219833,43.6492687,0
          </coordinates>
        </Point>
      </Placemark>
      <Placemark>
        <name>Full of Beans Coffee</name>
        <styleUrl>#icon</styleUrl>
        <Point>
          <coordinates>
            -79.4273667,43.6496182,0
          </coordinates>
        </Point>
      </Placemark>
      <Placemark>
        <name>Cygnet Coffee</name>
        <styleUrl>#icon</styleUrl>
        <Point>
          <coordinates>
            -79.4377331,43.6499344,0
          </coordinates>
        </Point>
      </Placemark>
    </Folder>
  </Document>
</kml>
